{
"type": "FeatureCollection",
"name": "cooling_sites",
"crs": { "type": "name", "properties": { "name": "urn:ogc:def:crs:OGC:1.3:CRS84" } },
"features": [
{ "type": "Feature", "properties": { "name": "Azalea Recreation Center", "address": "2596 Violet St.", "city": "San Diego", "state": "CA", "zip": 92105, "lat": 32.7333838, "lon": -117.1067734 }, "geometry": { "type": "Point", "coordinates": [ -117.1067734, 32.7333838 ] } },
{ "type": "Feature", "properties": { "name": "Balboa Park Activity Center", "address": "2145 Park Blvd.", "city": "San Diego", "state": "CA", "zip": 92101, "lat": 32.7266216, "lon": -117.1477046 }, "geometry": { "type": "Point", "coordinates": [ -117.1477046, 32.7266216 ] } },
{ "type": "Feature", "properties": { "name": "Canyonside Recreation Center", "address": "12350 Black Mountain Rd.", "city": "San Diego", "state": "CA", "zip": 92129, "lat": 32.942298, "lon": -117.1306165 }, "geometry": { "type": "Point", "coordinates": [ -117.1306165, 32.942298 ] } },
{ "type": "Feature", "properties": { "name": "Kearny Mesa Recreation Center", "address": "3170 Armstrong St.", "city": "San Diego", "state": "CA", "zip": 92111, "lat": 32.8026249, "lon": -117.1638702 }, "geometry": { "type": "Point", "coordinates": [ -117.1638702, 32.8026249 ] } },
{ "type": "Feature", "properties": { "name": "Montgomery Waller Recreation Center", "address": "3020 Coronado Ave.", "city": "San Diego", "state": "CA", "zip": 92154, "lat": 32.5790138, "lon": -117.0688224 }, "geometry": { "type": "Point", "coordinates": [ -117.0688224, 32.5790138 ] } },
{ "type": "Feature", "properties": { "name": "Mountain View Community Center", "address": "641 S. Boundary St.", "city": "San Diego", "state": "CA", "zip": 94040, "lat": 32.699065, "lon": -117.105615 }, "geometry": { "type": "Point", "coordinates": [ -117.105615, 32.699065 ] } },
{ "type": "Feature", "properties": { "name": "Nobel Recreation Center", "address": "8810 Judicial Drive", "city": "San Diego", "state": "CA", "zip": 92122, "lat": 32.8676389, "lon": -117.1976396 }, "geometry": { "type": "Point", "coordinates": [ -117.1976396, 32.8676389 ] } },
{ "type": "Feature", "properties": { "name": "Pacific Beach Recreation Center", "address": "1405 Diamond St.", "city": "San Diego", "state": "CA", "zip": 92109, "lat": 32.8015535, "lon": -117.2447934 }, "geometry": { "type": "Point", "coordinates": [ -117.2447934, 32.8015535 ] } },
{ "type": "Feature", "properties": { "name": "Rancho Bernardo-Glassman Recreation Center", "address": "18448 West Bernardo Drive", "city": "San Diego", "state": "CA", "zip": 92127, "lat": 33.04338, "lon": -117.0759518 }, "geometry": { "type": "Point", "coordinates": [ -117.0759518, 33.04338 ] } },
{ "type": "Feature", "properties": { "name": "San Carlos Recreation Center", "address": "6445 Lake Badin Ave.", "city": "San Diego", "state": "CA", "zip": 92119, "lat": 32.7983273, "lon": -117.0220387 }, "geometry": { "type": "Point", "coordinates": [ -117.0220387, 32.7983273 ] } },
{ "type": "Feature", "properties": { "name": "Allied Gardens/Benjamin Library", "address": "5188 Zion Ave.", "city": "San Diego", "state": "CA", "zip": 92120, "lat": 32.7930662, "lon": -117.0814929 }, "geometry": { "type": "Point", "coordinates": [ -117.0814929, 32.7930662 ] } },
{ "type": "Feature", "properties": { "name": "Balboa Library", "address": "4255 Mt. Abernathy Ave.", "city": "San Diego", "state": "CA", "zip": 92117, "lat": 32.8223204, "lon": -117.1749653 }, "geometry": { "type": "Point", "coordinates": [ -117.1749653, 32.8223204 ] } },
{ "type": "Feature", "properties": { "name": "Carmel Mountain Ranch Library", "address": "12095 World Trade Drive", "city": "San Diego", "state": "CA", "zip": 92128, "lat": 32.9817214, "lon": -117.0738508 }, "geometry": { "type": "Point", "coordinates": [ -117.0738508, 32.9817214 ] } },
{ "type": "Feature", "properties": { "name": "Carmel Valley Library", "address": "3919 Townsgate Drive", "city": "San Diego", "state": "CA", "zip": 92130, "lat": 32.9522183, "lon": -117.2308892 }, "geometry": { "type": "Point", "coordinates": [ -117.2308892, 32.9522183 ] } },
{ "type": "Feature", "properties": { "name": "Central Library", "address": "330 Park Blvd.", "city": "San Diego", "state": "CA", "zip": 92101, "lat": 32.7089055, "lon": -117.1541411 }, "geometry": { "type": "Point", "coordinates": [ -117.1541411, 32.7089055 ] } },
{ "type": "Feature", "properties": { "name": "City Heights/Weingart Library", "address": "3795 Fairmount Ave.", "city": "San Diego", "state": "CA", "zip": 92105, "lat": 32.7474786, "lon": -117.1003076 }, "geometry": { "type": "Point", "coordinates": [ -117.1003076, 32.7474786 ] } },
{ "type": "Feature", "properties": { "name": "Performance Annex & IDEA Lab", "address": "3795 Fairmount Ave.", "city": "San Diego", "state": "CA", "zip": 92105, "lat": 32.7474786, "lon": -117.1003076 }, "geometry": { "type": "Point", "coordinates": [ -117.1003076, 32.7474786 ] } },
{ "type": "Feature", "properties": { "name": "Clairemont Library", "address": "2920 Burgener Blvd.", "city": "San Diego", "state": "CA", "zip": 92110, "lat": 32.7935955, "lon": -117.1939592 }, "geometry": { "type": "Point", "coordinates": [ -117.1939592, 32.7935955 ] } },
{ "type": "Feature", "properties": { "name": "College-Rolando Library", "address": "6600 Montezuma Road", "city": "San Diego", "state": "CA", "zip": 92115, "lat": 32.7694363, "lon": -117.0561333 }, "geometry": { "type": "Point", "coordinates": [ -117.0561333, 32.7694363 ] } },
{ "type": "Feature", "properties": { "name": "Kensington-Normal Heights Library", "address": "4121 Adams Ave.", "city": "San Diego", "state": "CA", "zip": 92116, "lat": 32.7630265, "lon": -117.1068654 }, "geometry": { "type": "Point", "coordinates": [ -117.1068654, 32.7630265 ] } },
{ "type": "Feature", "properties": { "name": "La Jolla/Riford Library", "address": "7555 Draper Ave.", "city": "San Diego", "state": "CA", "zip": 92037, "lat": 32.8407598, "lon": -117.2760712 }, "geometry": { "type": "Point", "coordinates": [ -117.2760712, 32.8407598 ] } },
{ "type": "Feature", "properties": { "name": "Linda Vista Library", "address": "2160 Ulric St.", "city": "San Diego", "state": "CA", "zip": 92111, "lat": 32.783262, "lon": -117.17004 }, "geometry": { "type": "Point", "coordinates": [ -117.17004, 32.783262 ] } },
{ "type": "Feature", "properties": { "name": "Logan Heights Library", "address": "567 S. 28th St.", "city": "San Diego", "state": "CA", "zip": 92113, "lat": 32.6973377, "lon": -117.1336323 }, "geometry": { "type": "Point", "coordinates": [ -117.1336323, 32.6973377 ] } },
{ "type": "Feature", "properties": { "name": "Mira Mesa Library", "address": "8405 New Salem St.", "city": "San Diego", "state": "CA", "zip": 92126, "lat": 32.9151688, "lon": -117.1427176 }, "geometry": { "type": "Point", "coordinates": [ -117.1427176, 32.9151688 ] } },
{ "type": "Feature", "properties": { "name": "Mission Hills-Hillcrest/Knox Library", "address": "215 W. Washington St.", "city": "San Diego", "state": "CA", "zip": 92103, "lat": 32.7496715, "lon": -117.165356 }, "geometry": { "type": "Point", "coordinates": [ -117.165356, 32.7496715 ] } },
{ "type": "Feature", "properties": { "name": "Mission Valley Library", "address": "2123 Fenton Parkway", "city": "San Diego", "state": "CA", "zip": 92108, "lat": 32.779326, "lon": -117.1269345 }, "geometry": { "type": "Point", "coordinates": [ -117.1269345, 32.779326 ] } },
{ "type": "Feature", "properties": { "name": "Mountain View/Beckwourth Library", "address": "721 San Pasqual St.", "city": "San Diego", "state": "CA", "zip": 92113, "lat": 32.6985736, "lon": -117.1029582 }, "geometry": { "type": "Point", "coordinates": [ -117.1029582, 32.6985736 ] } },
{ "type": "Feature", "properties": { "name": "North Clairemont Library", "address": "4616 Clairemont Drive", "city": "San Diego", "state": "CA", "zip": 92117, "lat": 32.8283728, "lon": -117.206457 }, "geometry": { "type": "Point", "coordinates": [ -117.206457, 32.8283728 ] } },
{ "type": "Feature", "properties": { "name": "North Park Library", "address": "3795 31st St.", "city": "San Diego", "state": "CA", "zip": 92104, "lat": 32.74727, "lon": -117.126847 }, "geometry": { "type": "Point", "coordinates": [ -117.126847, 32.74727 ] } },
{ "type": "Feature", "properties": { "name": "North University Community Library", "address": "8820 Judicial Drive", "city": "San Diego", "state": "CA", "zip": 92122, "lat": 32.8676429, "lon": -117.1991316 }, "geometry": { "type": "Point", "coordinates": [ -117.1991316, 32.8676429 ] } },
{ "type": "Feature", "properties": { "name": "Oak Park Library", "address": "2802 54th St.", "city": "San Diego", "state": "CA", "zip": 92105, "lat": 32.7350515, "lon": -117.08003 }, "geometry": { "type": "Point", "coordinates": [ -117.08003, 32.7350515 ] } },
{ "type": "Feature", "properties": { "name": "Ocean Beach Library", "address": "4801 Santa Monica Ave.", "city": "San Diego", "state": "CA", "zip": 92107, "lat": 32.7454845, "lon": -117.2472119 }, "geometry": { "type": "Point", "coordinates": [ -117.2472119, 32.7454845 ] } },
{ "type": "Feature", "properties": { "name": "Otay Mesa-Nestor Library", "address": "3003 Coronado Ave.", "city": "San Diego", "state": "CA", "zip": 92154, "lat": 32.5767195, "lon": -117.0680151 }, "geometry": { "type": "Point", "coordinates": [ -117.0680151, 32.5767195 ] } },
{ "type": "Feature", "properties": { "name": "Pacific Beach/Taylor Library", "address": "4275 Cass St.", "city": "San Diego", "state": "CA", "zip": 92109, "lat": 32.794157, "lon": -117.2498772 }, "geometry": { "type": "Point", "coordinates": [ -117.2498772, 32.794157 ] } },
{ "type": "Feature", "properties": { "name": "Pacific Highlands Ranch Library", "address": "12911 Pacific Pl.", "city": "San Diego", "state": "CA", "zip": 92130, "lat": 32.9613483, "lon": -117.1875038 }, "geometry": { "type": "Point", "coordinates": [ -117.1875038, 32.9613483 ] } },
{ "type": "Feature", "properties": { "name": "Paradise Hills Library", "address": "5922 Rancho Hills Drive", "city": "San Diego", "state": "CA", "zip": 92139, "lat": 32.6727092, "lon": -117.0612166 }, "geometry": { "type": "Point", "coordinates": [ -117.0612166, 32.6727092 ] } },
{ "type": "Feature", "properties": { "name": "Point Loma/Hervey Library", "address": "3701 Voltaire St.", "city": "San Diego", "state": "CA", "zip": 92107, "lat": 32.7400803, "lon": -117.2294179 }, "geometry": { "type": "Point", "coordinates": [ -117.2294179, 32.7400803 ] } },
{ "type": "Feature", "properties": { "name": "Rancho Bernardo Library", "address": "17110 Bernardo Center Drive", "city": "San Diego", "state": "CA", "zip": 92128, "lat": 33.0249482, "lon": -117.0752778 }, "geometry": { "type": "Point", "coordinates": [ -117.0752778, 33.0249482 ] } },
{ "type": "Feature", "properties": { "name": "Rancho Pe√±asquitos Library", "address": "13330 Salmon River Road", "city": "San Diego", "state": "CA", "zip": 92129, "lat": 32.9580286, "lon": -117.1222075 }, "geometry": { "type": "Point", "coordinates": [ -117.1222075, 32.9580286 ] } },
{ "type": "Feature", "properties": { "name": "San Carlos Library", "address": "7265 Jackson Drive", "city": "San Diego", "state": "CA", "zip": 92119, "lat": 32.8020355, "lon": -117.0405989 }, "geometry": { "type": "Point", "coordinates": [ -117.0405989, 32.8020355 ] } },
{ "type": "Feature", "properties": { "name": "San Ysidro Library", "address": "4235 Beyer Blvd", "city": "San Diego", "state": "CA", "zip": 92173, "lat": 32.5578309, "lon": -117.043272 }, "geometry": { "type": "Point", "coordinates": [ -117.043272, 32.5578309 ] } },
{ "type": "Feature", "properties": { "name": "Scripps Miramar Ranch Library", "address": "10301 Scripps Lake Drive", "city": "San Diego", "state": "CA", "zip": 92131, "lat": 32.9117739, "lon": -117.1017229 }, "geometry": { "type": "Point", "coordinates": [ -117.1017229, 32.9117739 ] } },
{ "type": "Feature", "properties": { "name": "Serra Mesa-Kearny Mesa Library", "address": "9005 Aero Drive", "city": "San Diego", "state": "CA", "zip": 92123, "lat": 32.809207, "lon": -117.1337052 }, "geometry": { "type": "Point", "coordinates": [ -117.1337052, 32.809207 ] } },
{ "type": "Feature", "properties": { "name": "Skyline Hills Library", "address": "7900 Paradise Valley Road", "city": "San Diego", "state": "CA", "zip": 92139, "lat": 32.6969906, "lon": -117.0268897 }, "geometry": { "type": "Point", "coordinates": [ -117.0268897, 32.6969906 ] } },
{ "type": "Feature", "properties": { "name": "Tierrasanta Library", "address": "4985 La Cuenta Drive", "city": "San Diego", "state": "CA", "zip": 92124, "lat": 32.8208823, "lon": -117.0980871 }, "geometry": { "type": "Point", "coordinates": [ -117.0980871, 32.8208823 ] } },
{ "type": "Feature", "properties": { "name": "University Community Library", "address": "4155 Governor Drive", "city": "San Diego", "state": "CA", "zip": 92122, "lat": 32.853995, "lon": -117.200979 }, "geometry": { "type": "Point", "coordinates": [ -117.200979, 32.853995 ] } },
{ "type": "Feature", "properties": { "name": "University Heights Library", "address": "4193 Park Blvd.", "city": "San Diego", "state": "CA", "zip": 92103, "lat": 32.7537965, "lon": -117.1462588 }, "geometry": { "type": "Point", "coordinates": [ -117.1462588, 32.7537965 ] } },
{ "type": "Feature", "properties": { "name": "Valencia Park/Malcolm X Library", "address": "5148 Market St.", "city": "San Diego", "state": "CA", "zip": 92114, "lat": 32.7108177, "lon": -117.0839437 }, "geometry": { "type": "Point", "coordinates": [ -117.0839437, 32.7108177 ] } }
]
}
